     2.11           OBSERVATION DATA    G (GPS)             RINEX VERSION / TYPE
teqc  2018Dec12                         20190213 00:21:52UTCPGM / RUN BY / DATE
ZIMM                                                        MARKER NAME
14001M004                                                   MARKER NUMBER
TRIMBLE NETR9       SWISSTOPO                               OBSERVER / AGENCY
5429R49141          TRIMBLE NETR9       5.37                REC # / TYPE / VERS
99390               TRM29659.00     NONE                    ANT # / TYPE
  4331297.3480   567555.6390  4633133.7280                  APPROX POSITION XYZ
        0.0000        0.0000        0.0000                  ANTENNA: DELTA H/E/N
     1     1                                                WAVELENGTH FACT L1/2
    10    C1    L1    S1    C2    L2    S2    P2    C5    L5# / TYPES OF OBSERV
          S5                                                # / TYPES OF OBSERV
    30.0000                                                 INTERVAL
Linux 2.4.21-27.ELsmp|Opteron|gcc -static|Linux 64|=+       COMMENT
     2.11           OBSERVATION DATA    M (MIXED)           COMMENT
NetR9 5.37          Receiver Operator   20190212 000000 UTC COMMENT
L2C CARRIER PHASE MEASUREMENTS: PHASE SHIFTS REMOVED        COMMENT
L2C PHASE MATCHES L2 P PHASE                                COMMENT
GLONASS C/A & P PHASE MATCH: PHASE SHIFTS REMOVED           COMMENT
Forced Modulo Decimation to 30 seconds                      COMMENT
teqc edited: all GLONASS satellites excluded                COMMENT
teqc edited: all Galileo satellites excluded                COMMENT
  2019     2    12     0     0    0.0000000     GPS         TIME OF FIRST OBS
                                                            END OF HEADER
 19  2 12  0  0  0.0000000  0 11G01G32G11G18G08G27G26G20G21G16G10
  24441802.328 5 128442548.676 5        35.600    24441810.480 6 100085125.77146
        21.300    24441810.55946  24441806.570 1  95914879.00011        30.900
  24682977.977 6 129709947.116 6        39.500    24682984.688 5 101072692.43946
        22.600    24682984.04746
  23650581.227 6 124284651.146 6        39.400                    96845205.48046
        22.300    23650585.68046
  21876223.305 8 114960350.341 8        47.200                    89579520.81949
        36.000    21876227.93449
  20804205.438 9 109326853.780 9        52.700    20804212.098 9  85189783.36049
        47.500    20804211.23049  20804208.199 7  81640194.551 7        42.300
  20299332.063 9 106673737.343 9        54.700    20299338.473 9  83122421.93949
        50.500    20299337.89849  20299335.082 7  79658932.121 7        43.900
  24961474.992 5 131173442.115 5        35.500    24961483.020 6 102213110.14545
        19.300    24961482.39845
  21922692.172 8 115204549.791 8        45.000                    89769807.24349
        35.100    21922694.82849
  25233942.414 5 132605251.33015        36.000                   103328806.04555
        17.800    25233945.44145
  23004897.258 7 120891555.112 7        43.900                    94201218.43848
        32.300    23004900.44948
  20830139.773 9 109463141.477 9        52.400    20830146.332 9  85295989.06349
        47.200    20830145.87949  20830142.066 7  81741995.730 7        42.100
 19  2 12  0  0 30.0000000  0 11G01G32G11G18G08G27G26G20G21G16G10
  24423127.563 5 128344412.899 5        35.000    24423136.484 6 100008656.39246
        20.900    24423135.87946  24423132.512 1  95841595.79211        30.400
  24665194.813 6 129616494.824 6        39.700    24665201.758 6 100999872.48146
        22.300    24665201.01646
  23631413.766 6 124183918.477 6        40.500                    96766712.52546
        24.800    23631416.05146
  21860458.227 8 114877507.678 8        47.100                    89514968.11149
        36.200    21860463.80949
  20795793.000 9 109282646.338 9        52.800    20795799.988 9  85155335.99549
        47.600    20795798.74649  20795795.676 7  81607182.502 7        41.600
  20303111.547 9 106693596.062 9        53.100    20303117.438 9  83137896.25749
        50.500    20303117.09049  20303114.234 7  79673761.679 7        43.200
  24982882.125 6 131285934.666 6        38.400    24982889.711 5 102300766.70046
        21.300    24982889.17246
  21936575.711 8 115277509.562 8        45.300                    89826659.00549
        35.400    21936578.62549
  25249066.805 4 132684734.83314        34.300                   103390741.24955
        16.300    25249070.34445
  23024878.141 7 120996554.533 7        44.100                    94283036.16748
        32.600    23024881.64548
  20833484.023 9 109480713.964 9        52.100    20833490.375 9  85309681.91849
        47.300    20833489.94549  20833485.973 7  81755118.041 7        41.500
 19  2 12  0  1  0.0000000  0 11G01G32G11G18G08G27G26G20G21G16G10
  24404474.852 6 128246385.354 6        38.700    24404482.270 6  99932271.25846
        23.200    24404482.00046  24404477.691 1  95768393.47611        30.900
  24647426.063 6 129523115.839 6        39.800    24647431.496 5 100927109.66946
        22.300    24647431.30146
  23612262.391 6 124083279.006 6        40.800                    96688292.17947
        26.700    23612265.74247
  21844742.492 8 114794919.283 8        46.700                    89450613.54849
        36.500    21844747.60549
  20787452.836 9 109238818.234 9        52.700    20787459.414 9  85121184.22749
        47.600    20787458.52749  20787455.375 7  81574453.711 7        41.800
  20306977.125 9 106713911.225 9        53.700    20306983.309 9  83153726.25149
        50.400    20306982.84449  20306979.992 7  79688932.072 7        43.700
  25004282.477 5 131398393.269 5        37.100    25004289.559 6 102388396.79846
        21.100    25004289.37946
  21950533.094 8 115350856.448 8        45.500                    89883812.43249
        35.400    21950536.13349
  25264192.406 4 132764219.05514        34.800                   103452676.97455
        17.800    25264196.00445
  23044900.109 7 121101772.038 7        44.300                    94365023.82248
        32.400    23044903.49648
  20836934.180 9 109498843.710 9        52.000    20836940.008 9  85323809.00049
        47.300    20836940.02049  20836935.836 7  81768656.490 7        41.000
 19  2 12  0  1 30.0000000  0 11G01G32G11G18G08G27G26G20G21G16G10
  24385839.945 5 128148467.822 5        36.500    24385849.094 6  99855971.84846
        21.100    24385848.54346  24385844.871 1  95695273.12311        30.500
  24629670.625 6 129429814.209 6        39.700    24629676.719 5 100854407.07946
        21.700    24629676.11346
  23593129.656 6 123982734.938 6        40.400                    96609946.18947
        25.600    23593133.18047
  21829075.469 8 114712587.431 8        47.200                    89386458.89149
        35.700    21829080.18849
  20779185.414 9 109195372.275 9        52.800    20779192.141 9  85087330.23349
        47.800    20779191.06349  20779188.164 7  81542010.309 7        42.100
  20310929.992 9 106734684.044 9        53.000    20310936.270 9  83169912.85849
        50.400    20310935.66849  20310932.977 7  79704444.234 7        43.500
  25025675.977 5 131510816.723 5        35.500    25025683.262 5 102475999.49745
        18.300    25025682.56645
  21964564.031 8 115424589.525 8        45.500                    89941266.77549
        34.800    21964566.97349
  25279318.383 5 132843704.33115        37.000                   103514613.49655
        19.300    25279321.28945
  23064963.063 7 121207205.886 7        44.100                    94447180.06048
        32.000    23064966.78948
  20840490.141 9 109517530.754 9        51.900    20840496.230 9  85338370.33749
        47.200    20840496.05549  20840491.750 7  81782611.100 7        41.800
 19  2 12  0  2  0.0000000  0 11G01G32G11G18G08G27G26G20G21G16G10
  24367228.266 4 128050661.00014        34.900    24367236.953 6  99779758.79256
        20.900    24367236.11746  24367234.344 3  95622235.62613        32.200
  24611930.016 6 129336592.930 6        38.600    24611938.922 6 100781767.16246
        22.200    24611937.25446
  23574015.922 7 123882287.533 7        41.400                    96531675.54947
        26.800    23574018.97347
  21813456.914 8 114630513.025 8        47.300                    89322504.82749
        35.300    21813462.01249
  20770990.930 9 109152310.078 9        52.800    20770997.824 9  85053775.26849
        47.800    20770996.72349  20770993.570 7  81509853.481 7        42.000
  20314970.227 9 106755914.825 9        53.100    20314976.477 9  83186456.31749
        50.500    20314975.79349  20314973.121 7  79720298.399 7        43.100
  25047062.211 6 131623202.61016        38.700    25047069.918 5 102563572.90456
        21.800    25047069.20746
  21978668.094 8 115498706.336 8        45.400                    89999020.14149
        35.100    21978670.80149
  25294444.828 5 132923190.95715        36.100                   103576551.09155
        17.800    25294448.08245
  23085067.664 7 121312853.319 7        44.000                    94529502.72348
        31.500    23085071.09848
  20844151.813 9 109536774.124 9        51.300    20844158.125 9  85353365.17149
        47.000    20844157.77749  20844153.652 7  81796981.163 7        41.700
 19  2 12  0  2 30.0000000  0 11G01G32G11G18G08G27G26G20G21G16G10
  24348638.273 5 127952965.632 5        37.900    24348647.055 6  99703632.52646
        24.700    24348646.44146  24348643.551 3  95549281.368 3        33.600
  24594208.320 6 129243454.801 6        40.200    24594214.828 6 100709192.01446
        22.900    24594213.67246
  23554919.977 7 123781937.880 7        41.700                    96453481.04047
        25.600    23554922.48447
  21797888.391 9 114548696.782 9        48.300                    89258751.92049
        36.300    21797892.48849
  20762869.570 9 109109633.017 9        52.600    20762876.574 9  85020520.41249
        47.500    20762875.54349  20762872.395 7  81477984.243 7        42.300
  20319097.547 9 106777603.458 9        53.400    20319103.695 9  83203356.54049
        50.500    20319102.93449  20319099.852 7  79736494.424 7        43.200
  25068441.813 6 131735548.067 6        39.200    25068448.879 6 102651114.85646
        24.100    25068448.57446
  21992844.547 8 115573204.259 8        45.500                    90057070.46449
        35.000    21992847.55149
  25309569.563 3 133002678.36413        33.700                   103638489.33455
        18.600    25309574.03145
  23105211.375 7 121418711.115 7        44.100                    94611989.31448
        32.000    23105215.07448
  20847919.219 9 109556572.501 9        51.400    20847925.574 9  85368792.48849
        46.800    20847925.24649  20847921.215 7  81811765.677 7        41.700
 19  2 12  0  3  0.0000000  0 11G01G32G11G18G08G27G26G20G21G16G10
  24330069.398 5 127855382.696 5        37.100    24330077.395 6  99627593.93246
        22.200    24330077.07046  24330072.766 1  95476411.057 1        29.700
  24576500.102 6 129150403.206 6        39.000    24576506.871 5 100636684.26746
        22.300    24576506.68446
  23535841.586 6 123681687.128 6        40.500                    96375363.59247
        26.700    23535844.37147
  21782368.883 8 114467140.075 8        47.500                    89195201.26449
        36.200    21782372.77349
  20754822.266 9 109067342.910 9        52.800    20754828.879 9  84987567.08749
        47.900    20754827.87149  20754824.883 7  81446403.973 7        42.100
  20323311.922 9 106799750.475 9        53.400    20323317.969 9  83220613.95449
        50.600    20323317.37149  20323314.730 7  79753032.786 7        43.300
  25089808.938 1 131847851.31111        30.500    25089819.070 5 102738623.68055
        15.600    25089819.15245
  22007093.297 8 115648081.286 8        45.400                    90115416.18749
        34.700    22007096.12949
  25324697.031 4 133082166.85614        34.600                   103700428.36455
        16.300    25324700.03945
  23125395.625 7 121524777.102 7        44.100                    94694638.13448
        32.200    23125398.20748
  20851792.359 9 109576925.233 9        51.300    20851798.453 9  85384651.76549
        46.600    20851798.16849  20851794.043 7  81826964.143 7        42.100
 19  2 12  0  3 30.0000000  0 11G01G32G11G18G08G27G26G20G21G16G10
  24311521.203 5 127757912.365 5        37.500    24311528.246 6  99551643.04146
        21.100    24311527.94946  24311523.984 2  95403624.78412        31.000
  24558809.852 6 129057440.341 6        39.200    24558816.820 6 100564245.71446
        22.600    24558815.98046
  23516783.438 6 123581535.982 6        40.200                    96297323.77047
        25.400    23516786.59447
  21766898.297 9 114385843.023 9        48.100                    89131852.91749
        36.100    21766902.37549
  20746848.516 9 109025441.031 9        53.000    20746855.164 9  84954916.26649
        47.900    20746854.31649  20746851.445 7  81415113.598 7        42.600
  20327613.328 9 106822355.388 9        53.800    20327619.816 9  83238228.16649
        50.500    20327618.93849  20327616.375 7  79769913.076 7        43.200
  25111174.625 6 131960126.12216        40.400    25111179.879 5 102826088.50855
        19.600    25111180.09045  25111177.711 1  98541627.59511        30.900
  22021413.906 8 115723334.402 8        45.500                    90174054.98249
        34.800    22021416.22749
  25339822.281 5 133161656.08315        35.300                   103762368.20255
        18.600    25339825.93445
  23145618.398 7 121631047.750 7        43.900                    94777446.43348
        31.400    23145621.20748
  20855770.328 9 109597830.475 9        51.900    20855776.863 9  85400941.56849
        46.700    20855776.45349  20855772.211 7  81842575.204 7        41.100
 19  2 12  0  4  0.0000000  0 11G01G32G11G18G08G27G26G20G21G16G10
  24292995.703 6 127660555.387 6        38.700    24293002.043 5  99475780.47846
        21.800    24293001.72746  24292999.012 2  95330923.162 2        31.200
  24541136.844 6 128964569.440 6        38.800    24541144.121 6 100491878.78546
        22.000    24541143.36746
  23497745.141 6 123481485.876 6        40.900                    96219362.67947
        26.500    23497748.03147
  21751477.539 8 114304806.864 8        47.500                    89068707.87349
        36.400    21751481.49249
  20738949.016 9 108983928.879 9        52.700    20738955.902 9  84922569.13649
        48.000    20738954.88349  20738951.914 7  81384114.256 7        42.400
  20332002.070 9 106845418.417 9        53.200    20332008.488 9  83256199.34849
        50.500    20332007.72749  20332004.844 7  79787135.458 7        43.000
  25132525.852 5 132072335.991 5        37.600    25132534.777 6 102913524.76146
        22.900    25132534.10546  25132530.258 1  98625420.628 1        28.800
  22035804.914 8 115798961.492 8        45.000                    90232985.19249
        34.700    22035807.61349
  25354948.703 5 133241143.640 5        35.800                   103824306.56545
        19.300    25354951.48045
  23165879.211 7 121737520.405 7        43.600                    94860412.12548
        31.800    23165882.21148
  20859853.469 9 109619287.251 9        51.300    20859859.727 9  85417661.13349
        46.600    20859859.37149  20859855.406 7  81858598.135 7        41.400
 19  2 12  0  4 30.0000000  0 11G01G32G11G18G08G27G26G20G21G16G10
  24274490.078 5 127563312.739 5        37.100    24274497.543 6  99400006.95346
        24.000    24274497.27346  24274494.438 2  95258306.921 2        31.200
  24523482.531 6 128871793.405 6        38.400    24523489.293 6 100419585.79246
        22.200    24523488.48846
  23478725.930 7 123381538.106 7        41.100                    96141481.35247
        27.200    23478728.95747
  21736106.711 8 114224032.507 8        47.900                    89005766.83149
        36.900    21736110.75049
  20731123.891 9 108942807.890 9        53.200    20731130.977 9  84890526.81049
        48.000    20731129.99249  20731126.797 7  81353407.020 7        42.900
  20336478.156 9 106868939.676 9        53.500    20336484.262 9  83274527.60249
        50.300    20336483.67249  20336480.824 7  79804700.036 7        43.700
  25153868.414 3 132184496.00713        33.100    25153877.266 6 103000898.96616
        38.400
  22050266.648 8 115874960.031 8        45.100                    90292204.82649
        34.400    22050269.39549
  25370074.383 5 133320630.53915        35.500                   103886244.33555
        17.800    25370078.35245
  23186177.648 7 121844191.845 7        43.700                    94943532.71248
        31.200    23186181.15248
  20864041.328 9 109641294.400 9        51.900    20864047.648 9  85434809.57049
        46.800    20864047.27749  20864043.309 7  81875032.052 7        41.900
 19  2 12  0  5  0.0000000  0 11G01G32G11G18G08G27G26G20G21G16G10
  24256007.625 5 127466186.222 5        36.100    24256015.449 6  99324324.06246
        22.200    24256015.00846  24256011.438 2  95185777.433 2        31.600
  24505847.023 6 128779116.634 6        40.200    24505853.758 6 100347370.13846
        22.200    24505852.91046
  23459725.906 6 123281694.857 6        40.500                    96063681.43947
        25.300    23459729.39147
  21720786.313 8 114143522.421 8        47.300                    88943031.70649
        36.600    21720790.21549
  20723373.883 9 108902081.506 9        52.800    20723381.000 9  84858791.96249
        48.100    20723379.83649  20723376.734 7  81322994.476 7        42.500
  20341041.500 9 106892920.574 9        54.400    20341047.895 9  83293214.01249
        50.500    20341047.10549  20341044.480 7  79822607.834 7        43.100
  25175204.086 6 132296604.479 6        39.600    25175208.199 2 103088282.27455
        16.900    25175209.72345
  22064799.570 8 115951329.020 8        45.500                    90351713.13449
        34.700    22064802.28949
  25385200.352 4 133400117.67414        34.600                   103948182.32155
        16.900    25385204.00845
  23206514.672 7 121951061.368 7        43.900                    95026807.64648
        31.200    23206517.71948
  20868333.898 9 109663852.137 9        52.300    20868340.027 9  85452387.03349
        46.800    20868339.74649  20868335.801 7  81891877.105 7        41.400
 19  2 12  0  5 30.0000000  0 11G01G32G11G18G08G27G26G20G21G16G10
  24237546.008 6 127369175.42716        38.900    24237554.152 6  99248731.24356
        22.800    24237553.69946  24237549.828 1  95113334.31211        29.500
  24488229.414 5 128686540.732 5        36.800    24488237.012 6 100275233.11046
        22.600    24488236.51246
  23440746.109 7 123181956.123 7        41.000                    95985962.96447
        25.400    23440749.48047
  21705515.266 8 114063276.071 8        47.200                    88880502.11549
        36.400    21705520.33249
  20715699.133 9 108861749.648 9        53.200    20715705.832 9  84827364.54049
        48.100    20715704.93449  20715702.020 7  81292876.513 7        42.400
  20345692.070 9 106917359.934 9        54.500    20345698.551 9  83312257.66749
        50.500    20345697.90249  20345695.031 7  79840858.018 7        43.200
  25196526.148 4 132408658.070 4        34.500    25196534.250 5 103175596.88645
        18.600    25196533.53145  25196530.125 2  98876549.22912        31.100
  22079401.336 8 116028064.821 8        45.300                    90411507.26249
        34.300    22079404.66849
  25400325.813 4 133479603.54214        34.000                   104010119.36655
        17.400    25400329.88745
  23226887.758 7 122058124.533 7        44.100                    95110233.50448
        30.600    23226891.07848
  20872731.102 9 109686957.934 9        51.900    20872736.855 9  85470391.56249
        46.800    20872736.65249  20872732.723 7  81909131.454 7        41.800
 19  2 12  0  6  0.0000000  0 11G01G32G11G18G08G27G26G20G21G16G10
  24219108.555 5 127272281.207 5        37.900    24219116.473 6  99173229.24646
        22.800    24219115.80146  24219112.148 2  95040978.263 2        31.800
  24470632.914 5 128594068.849 5        37.700    24470640.215 6 100203177.09946
        22.900    24470639.27346
  23421786.867 7 123082323.160 7        41.100                    95908326.94547
        26.500    23421790.00047
  21690295.523 8 113983294.544 8        47.300                    88818178.86449
        36.000    21690300.02749
  20708099.672 9 108821813.806 9        52.900    20708106.465 9  84796245.69949
        48.200    20708105.46949  20708102.555 7  81263054.301 7        42.200
  20350430.125 9 106942257.867 9        54.900    20350436.504 9  83331658.63749
        50.500    20350435.73449  20350433.121 7  79859450.612 7        43.100
  25217839.219 5 132520654.49115        36.500    25217846.371 6 103262866.65556
        21.300    25217846.15646  25217842.020 1  98960182.87111        27.300
  22094072.922 8 116105165.031 8        45.200                    90471585.33648
        33.500    22094076.21148
  25415451.352 5 133559087.65415        35.900                   104072055.06355
        16.300    25415454.18845
  23247298.000 7 122165378.375 7        43.500                    95193807.92048
        30.900    23247300.94948
  20877232.133 9 109710610.697 9        52.700    20877238.027 9  85488822.29549
        46.800    20877237.51249  20877233.551 7  81926794.253 7        41.300
 19  2 12  0  6 30.0000000  0 11G01G32G11G18G08G27G26G20G21G16G10
  24200691.766 5 127175504.042 5        35.600    24200699.824 6  99097818.52746
        22.500    24200699.84046  24200696.387 3  94968709.68913        32.300
  24453055.703 5 128501703.795 5        37.900    24453062.906 6 100131204.33846
        22.500    24453063.14546
  23402848.055 7 122982797.105 7        41.300                    95830774.19147
        27.500    23402850.87147
  21675125.867 8 113903578.808 8        47.600                    88756062.73049
        36.700    21675130.59849
  20700575.547 9 108782275.447 9        53.000    20700582.594 9  84765436.59249
        48.200    20700581.67249  20700578.445 7  81233528.909 7        42.700
  20355255.117 9 106967614.263 9        55.100    20355261.500 9  83351416.85949
        50.400    20355261.00449  20355258.301 7  79878385.578 7        43.200
  25239140.461 6 132632590.916 6        38.400    25239147.090 5 103350089.84946
        21.100    25239146.94146
  22108813.750 8 116182627.425 8        45.100                    90531945.65249
        34.200    22108816.94949
  25430576.422 5 133638569.94115        35.500                   104133989.30855
        16.900    25430579.59445
  23267743.398 7 122272820.051 7        43.300                    95277528.70348
        30.200    23267746.17248
  20881836.539 9 109734808.983 9        51.600    20881842.656 9  85507678.11149
        46.700    20881842.42649  20881838.309 7  81944864.401 7        41.300
 19  2 12  0  7  0.0000000  0 12G01G32G11G18G08G27G26G20G21G16G22G10
  24182297.164 5 127078845.449 5        35.400    24182306.938 6  99022500.20246
        21.700    24182306.86346  24182302.430 2  94896529.594 2        31.500
  24435500.656 6 128409449.289 6        38.100    24435507.910 6 100059317.70346
        22.500    24435507.93446
  23383929.289 7 122883379.840 7        41.800                    95753306.20047
        26.200    23383931.50047
  21660008.000 8 113824130.262 8        47.800                    88694154.79749
        36.900    21660012.03949
  20693127.789 9 108743136.992 9        53.000    20693134.672 9  84734939.09549
        48.100    20693133.67649  20693130.836 7  81204302.142 7        41.800
  20360167.594 9 106993429.923 9        54.900    20360174.176 9  83371532.94549
        50.300    20360173.50849  20360170.734 7  79897663.477 7        43.300
  25260426.672 4 132744465.96314        34.100    25260435.641 3 103437265.22955
        16.300    25260435.19945
  22123622.875 8 116260450.107 8        45.400                    90592586.70049
        34.100    22123626.11749
  25445700.148 3 133718050.70313        33.700                   104195922.33855
        17.400    25445704.03545
  23288224.133 7 122380447.501 7        43.700                    95361394.23648
        30.200    23288227.38348
  25291573.898 5 132908106.41015        37.700                   103564773.67355
        15.600    25291575.60945
  20886545.102 9 109759552.334 9        51.500    20886551.191 9  85526958.65149
        46.600    20886550.87149  20886546.984 7  81963341.586 7        41.300
 19  2 12  0  7 30.0000000  0 12G01G32G11G18G08G27G26G20G21G16G22G10
  24163927.547 5 126982306.225 5        36.500    24163935.375 6  98947274.89746
        21.700    24163935.78546  24163931.051 1  94824438.697 1        30.800
  24417966.367 5 128317308.329 5        37.800    24417974.762 6  99987519.59246
        24.200    24417973.52346
  23365031.547 7 122784072.477 7        41.900                    95675923.87447
        26.400    23365034.93447
  21644940.117 9 113744949.832 9        48.200                    88632455.77749
        37.400    21644944.77049
  20685756.586 9 108704399.906 9        54.000    20685763.051 9  84704754.34749
        48.300    20685762.17249  20685759.191 7  81175375.083 7        42.400
  20365167.742 9 107019704.909 9        54.200    20365174.145 9  83392006.95249
        50.300    20365173.44549  20365170.703 7  79917284.421 7        43.000
  25281705.148 5 132856277.062 5        37.300    25281713.207 5 103524390.76446
        20.400    25281712.78146
  22138500.305 7 116338630.851 7        44.900                    90653506.75449
        34.000    22138503.33249
  25460826.063 3 133797529.44613        33.600                   104257853.78155
        17.400    25460828.88745
  23308739.742 7 122488257.920 7        43.400                    95445402.34148
        30.600    23308742.77048
  25270565.914 7 132797704.089 7        41.300                   103478745.78046
        23.200    25270567.00846
  20891356.773 9 109784839.487 9        51.500    20891363.336 9  85546662.93149
        46.300    20891362.84449  20891359.070 7  81982224.857 7        41.500
 19  2 12  0  8  0.0000000  0 11G01G32G11G18G08G27G20G21G16G22G10
  24145578.523 5 126885886.448 5        35.100    24145586.934 6  98872142.62146
        21.100    24145586.76646  24145584.227 3  94752436.962 3        32.100
  24400455.453 6 128225283.394 6        38.900    24400462.555 6  99915811.86646
        22.600    24400461.48046
  23346154.430 7 122684875.660 7        41.300                    95598627.67947
        28.200    23346157.71947
  21629923.891 8 113666038.137 8        47.800                    88570966.16249
        37.600    21629928.50849
  20678461.375 9 108666065.141 9        53.800    20678468.430 9  84674883.09749
        48.200    20678467.25449  20678464.191 7  81146748.491 7        42.500
  20370254.875 9 107046438.705 9        53.600    20370261.418 9  83412838.47449
        50.300    20370260.76649  20370258.047 7  79937247.952 7        42.800
  22153445.125 7 116417166.595 7        44.700                    90714703.44748
        33.500    22153447.89848
  25475949.391 5 133877005.418 5        35.000                   104319783.04645
        18.300    25475953.27345
  23329289.773 7 122596248.226 7        43.600                    95529550.62948
        30.600    23329292.94948
  25249564.805 3 132687351.591 3        33.500                   103392756.99345
        17.800    25249567.84845
  20896272.133 9 109810668.693 9        51.700    20896278.398 9  85566789.59149
        46.400    20896278.19149  20896274.266 7  82001512.875 7        41.200
 19  2 12  0  8 30.0000000  0 11G01G32G11G18G08G27G20G21G16G22G10
  24127254.250 5 126789587.030 5        37.200    24127262.574 6  98797104.21346
        22.200    24127261.78946  24127258.324 3  94680525.107 3        32.100
  24382965.813 6 128133377.542 6        38.300    24382973.352 6  99844196.92046
        22.900    24382972.77746
  23327299.250 7 122585790.848 7        41.400                    95521418.75947
        26.800    23327302.80547
  21614958.859 8 113587396.040 8        47.800                    88509686.63049
        37.800    21614963.28549
  20671243.500 9 108628134.373 9        54.300    20671250.477 9  84645326.65649
        48.500    20671249.34449  20671246.438 7  81118423.565 7        42.000
  20375429.633 9 107073631.252 9        54.900    20375435.898 9  83434027.46749
        50.300    20375435.32449  20375432.633 7  79957554.075 7        43.400
  22168457.117 7 116496054.810 7        44.600                    90776174.78148
        33.800    22168460.41848
  25491072.531 4 133956478.51614        34.600                   104381710.11455
        18.300    25491076.82845
  23349872.977 7 122704415.439 7        43.300                    95613836.77048
        31.000    23349876.59448
  25228576.711 7 132577050.843 7        41.400                   103306808.25845
        19.600    25228577.02345
  20901289.930 9 109837038.549 9        51.000    20901296.305 9  85587337.52249
        46.200    20901296.05149  20901292.000 7  82021204.654 7        41.100
 19  2 12  0  9  0.0000000  0 11G01G32G11G18G08G27G20G21G16G22G10
  24108951.555 5 126693408.79615        36.300    24108960.066 6  98722160.17656
        22.900    24108959.54346  24108956.211 3  94608703.786 3        32.600
  24365500.039 6 128041593.989 6        39.500    24365507.086 6  99772677.30646
        22.500    24365507.09046
  23308466.313 7 122486819.327 7        41.500                    95444298.12247
        27.600    23308469.45747
  21600045.016 9 113509024.716 9        48.600                    88448618.07849
        37.200    21600049.40249
  20664102.820 9 108590609.614 9        54.100    20664109.660 9  84616086.58549
        48.500    20664108.68049  20664105.551 7  81090401.838 7        42.600
  20380691.664 9 107101282.901 9        54.600    20380697.867 9  83455574.20349
        50.400    20380697.28549  20380694.523 7  79978203.017 7        43.100
  22183535.922 7 116575293.614 7        44.200                    90837919.29848
        33.000    22183538.80148
  25506195.836 4 134035948.60514        34.800                   104443634.94355
        17.800    25506198.22345
  23370489.703 7 122812756.818 7        43.000                    95698258.61647
        29.500    23370493.13347
  25207595.031 3 132466804.048 3        32.500                   103220901.69745
        17.800    25207599.39545
  20906410.555 9 109863948.039 9        52.400    20906417.082 9  85608305.96549
        46.400    20906416.61749  20906412.664 7  82041299.436 7        41.700
 19  2 12  0  9 30.0000000  0 11G01G32G11G18G08G27G20G21G16G22G10
  24090672.094 5 126597352.765 5        36.400    24090680.941 6  98647311.36746
        20.100    24090680.35946  24090677.129 2  94536973.678 2        31.900
  24348059.164 6 127949935.874 6        39.400    24348065.246 6  99701255.39846
        22.900    24348064.91046
  23289653.945 6 122387962.789 6        40.900                    95367267.08747
        26.300    23289656.93047
  21585183.211 9 113430925.189 9        48.600                    88387761.31449
        37.700    21585187.64849
  20657039.602 9 108553492.095 9        54.500    20657046.344 9  84587163.84449
        48.600    20657045.46549  20657042.195 7  81062684.195 7        42.600
  20386040.789 9 107129393.750 9        55.000    20386047.266 9  83477478.74749
        50.200    20386046.69149  20386043.824 7  79999194.877 7        43.600
  22198680.625 7 116654880.618 7        44.300                    90899935.13748
        32.400    22198683.58648
  25521316.859 4 134115415.429 4        34.000                   104505557.15045
        17.400    25521320.32845
  23391138.781 7 122921269.814 7        43.300                    95782814.19348
        30.400    23391142.21948
  25186629.219 7 132356613.276 7        41.300                   103135038.87546
        23.800    25186630.83246
  20911634.000 9 109891396.047 9        52.300    20911640.477 9  85629694.02049
        46.300    20911639.91449  20911635.938 7  82061796.318 7        41.400
 19  2 12  0 10  0.0000000  0 11G01G32G11G18G08G27G20G21G16G22G10
  24072417.563 5 126501419.831 5        37.300    24072425.328 6  98572558.45446
        20.100    24072424.74646  24072421.816 3  94465335.54213        32.800
  24330641.203 6 127858406.596 6        39.200    24330648.777 6  99629933.90146
        24.700    24330647.46946
  23270864.508 7 122289222.275 7        41.800                    95290326.42847
        26.900    23270866.82047
  21570373.523 9 113353099.065 9        48.500                    88327117.59149
        37.500    21570377.55949
  20650054.234 9 108516783.907 9        54.700    20650061.293 9  84558560.06349
        48.300    20650059.97749  20650056.941 7  81035272.252 7        42.200
  20391477.516 9 107157964.070 9        54.500    20391483.926 9  83499741.32949
        50.200    20391483.46549  20391480.500 7  80020529.830 7        42.800
  22213891.203 7 116734813.924 7        43.900                    90962220.83148
        32.600    22213894.39548
  25536438.078 3 134194879.13313        32.800                   104567476.86055
        16.300    25536442.05545
  23411820.711 7 123029952.250 7        43.900                    95867501.79447
        29.000    23411823.90647
  25165669.344 5 132246480.523 5        35.800                   103049221.00845
        16.300    25165671.60945
  20916959.469 9 109919381.566 9        52.900    20916965.617 9  85651500.92449
        46.300    20916965.30149  20916961.387 7  82082694.594 7        41.500
 19  2 12  0 10 30.0000000  0 11G01G32G11G18G08G27G20G21G16G22G10
  24054185.625 5 126405610.288 5        37.900    24054193.984 6  98497901.72446
        22.300    24054193.18446  24054190.523 3  94393789.437 3        33.300
  24313249.391 6 127767008.373 6        39.000    24313256.098 6  99558714.52146
        24.200    24313255.10546
  23252096.898 7 122190598.875 7        41.800                    95213477.02947
        27.600    23252100.19547
  21555615.227 9 113275546.008 9        48.700                    88266686.64349
        37.000    21555619.68449
  20643146.844 9 108480485.804 9        54.100    20643153.797 9  84530275.82249
        48.500    20643152.74649  20643149.750 7  81008166.511 7        42.700
  20397001.641 9 107186993.128 9        54.500    20397008.066 9  83522361.36149
        50.300    20397007.41049  20397004.480 7  80042207.373 7        43.200
  22229167.664 7 116815090.254 7        44.100                    91024773.82648
        32.900    22229170.81348
  25551559.695 3 134274338.721 3        33.700                   104629393.36745
        17.400    25551562.90645
  23432533.930 8 123138800.312 8        45.000                    95952318.45847
        29.500    23432537.19947
  25144724.430 6 132136406.924 6        39.500                   102963449.45647
        25.100    25144726.59847
  20922387.164 9 109947902.397 9        52.700    20922392.898 9  85673724.95049
        46.600    20922392.96149  20922388.586 7  82103992.642 7        41.500
 19  2 12  0 11  0.0000000  0 11G01G32G11G18G08G27G20G21G16G22G10
  24035976.820 6 126309924.44516        39.500    24035985.809 6  98423341.39956
        22.600    24035984.93046  24035981.418 3  94322335.829 3        32.100
  24295881.602 6 127675744.137 6        39.800    24295888.570 6  99487599.54847
        25.300    24295887.92247
  23233352.055 7 122092093.320 7        41.600                    95136719.49747
        28.000    23233355.03547
  21540909.930 9 113198267.248 9        48.800                    88206469.45049
        36.600    21540913.69949
  20636318.023 9 108444598.998 9        54.900    20636325.063 9  84502312.08249
        48.500    20636323.60949  20636320.590 7  80981367.939 7        42.600
  20402612.898 9 107216480.786 9        54.900    20402619.441 9  83545338.75049
        50.200    20402618.71949  20402615.789 7  80064227.385 7        43.400
  22244508.422 7 116895707.122 7        44.000                    91087592.15448
        33.000    22244511.24248
  25566679.555 5 134353793.869 5        36.000                   104691306.42045
        16.900    25566683.08245
  23453277.867 7 123247811.135 7        44.200                    96037261.95847
        29.700    23453281.12547
  25123790.219 6 132026394.447 6        40.400                   102877725.47546
        24.600    25123791.85246
  20927915.852 9 109976957.118 9        52.800    20927922.016 9  85696365.00549
        46.700    20927921.60549  20927917.652 6  82125689.337 6        40.800
 19  2 12  0 11 30.0000000  0 11G01G32G11G18G08G27G20G21G16G22G10
  24017791.828 6 126214363.80416        38.800    24017800.309 6  98348878.63556
        22.500    24017800.66046  24017796.781 2  94250975.690 2        31.400
  24278540.242 6 127584617.550 6        38.600    24278547.945 6  99416591.80746
        24.400    24278546.78146
  23214629.594 7 121993707.592 7        42.000                    95060055.31147
        28.200    23214633.19947
  21526256.391 9 113121264.231 9        48.200                    88146467.12149
        37.300    21526260.86749
  20629567.633 9 108409126.068 9        54.200    20629574.406 9  84474670.82949
        48.800    20629573.34849  20629570.430 7  80954878.406 7        43.000
  20408311.609 9 107246427.544 9        54.700    20408318.098 9  83568673.88149
        50.100    20408317.37149  20408314.711 7  80086590.203 7        43.300
  22259913.836 7 116976662.958 7        44.200                    91150674.63348
        33.500    22259916.93448
  25581798.297 5 134433244.846 5        35.000                   104753216.26145
        16.300    25581802.05545
  23474052.383 7 123356982.332 7        43.200                    96122330.42047
        28.700    23474055.77347
  25102865.977 4 131916445.164 4        34.400                   102792050.67345
        17.400    25102868.07445
  20933546.070 9 110006544.938 9        52.800    20933552.523 9  85719420.45049
        46.400    20933552.10549  20933547.977 7  82147784.143 7        41.100
 19  2 12  0 12  0.0000000  0 11G01G32G11G18G08G27G20G21G16G22G10
  23999631.703 6 126118929.064 6        38.800    23999639.504 6  98274513.95446
        22.500    23999639.16046  23999635.750 2  94179709.559 2        31.500
  24261227.000 6 127493631.720 6        39.200    24261233.797 6  99345693.80146
        24.500    24261232.77046  24261229.910 1  95206219.23711        30.900
  23195930.188 7 121895443.007 7        41.400                    94983485.52047
        28.800    23195933.88747
  21511655.922 9 113044537.921 9        48.600                    88086680.39949
        37.500    21511660.44149
  20622896.617 9 108374068.568 9        54.500    20622903.059 9  84447353.29949
        48.800    20622902.27049  20622899.020 7  80928699.109 7        42.800
  20414097.523 9 107276833.430 9        54.500    20414104.254 9  83592366.77649
        50.200    20414103.28549  20414100.711 7  80109295.888 7        43.400
  22275383.453 7 117057955.128 7        44.300                    91214019.16448
        32.200    22275386.17248
  25596916.891 4 134512691.356 4        34.800                   104815122.64545
        16.900    25596920.33645
  23494857.734 7 123466311.383 7        43.500                    96207521.88147
        29.400    23494860.46147
  25081957.063 6 131806561.642 6        38.800                   102706427.17246
        22.500    25081958.66446
  20939277.758 9 110036664.536 9        52.300    20939284.000 9  85742890.27549
        46.300    20939283.67649  20939279.844 7  82170276.035 7        41.500
 19  2 12  0 12 30.0000000  0 12G01G32G11G18G08G27G14G20G21G16G22G10
  23981494.867 6 126023621.253 6        38.700    23981502.961 6  98200248.21246
        22.500    23981503.19146  23981499.883 2  94108538.177 2        31.700
  24243940.523 6 127402789.767 6        39.400    24243947.340 6  99274907.86847
        25.200    24243945.84047  24243943.328 2  95138382.774 2        31.400
  23177254.313 7 121797300.852 7        41.300                    94907011.12547
        28.100    23177257.46547
  21497108.531 9 112968089.448 9        49.000                    88027110.18449
        37.200    21497112.68049
  20616304.563 9 108339427.696 9        54.600    20616311.402 9  84420360.41449
        48.900    20616310.14849  20616307.227 7  80902830.918 7        43.000
  20419971.266 9 107307698.478 9        54.800    20419977.617 9  83616417.45749
        50.100    20419976.83649  20419974.410 7  80132344.457 7        43.400
  25227899.453 5 132573508.70615        37.200                   103304040.21155
        19.900    25227902.79345
  22290916.313 7 117139581.432 7        44.100                    91277624.09548
        32.400    22290918.96148
  25612033.234 3 134592133.333 3        33.800                   104877025.46744
        14.800    25612037.03544
  23515691.258 7 123575795.583 7        43.400                    96292834.24347
        28.900    23515694.41847
  25061060.117 6 131696745.545 6        39.100                   102620856.16146
        23.900    25061061.51246
  20945110.023 9 110067314.607 9        51.900    20945116.688 9  85766773.44449
        46.000    20945116.23449  20945112.070 7  82193164.082 7        41.800
 19  2 12  0 13  0.0000000  0 12G01G32G11G18G08G27G14G20G21G16G22G10
  23963382.758 5 125928440.270 5        37.900    23963391.453 6  98126081.22646
        22.500    23963390.67246  23963387.582 3  94037461.578 3        32.800
  24226681.672 6 127312094.027 6        39.700    24226688.574 6  99204235.88047
        25.800    24226687.26247  24226684.320 2  95070655.420 2        31.100
  23158601.977 7 121699281.912 7        41.600                    94830632.76147
        28.400    23158604.71147
  21482613.695 9 112891919.082 9        49.000                    87967756.66149
        37.900    21482617.97349
  20609791.977 9 108305204.388 9        54.400    20609798.895 9  84393692.89349
        49.000    20609797.71149  20609794.641 7  80877274.547 7        42.300
  20425931.820 9 107339021.896 9        55.800    20425938.207 9  83640825.30049
        50.200    20425937.56349  20425934.887 7  80155735.310 7        43.200
  25210416.727 3 132481649.36813        33.700                   103232461.56055
        15.600    25210422.19945
  22306512.289 7 117221538.947 7        43.800                    91341487.08648
        32.100    22306515.26648
  25627150.039 3 134671569.998 3        33.900                   104938924.18444
        14.800    25627152.82044
  23536554.359 7 123685431.621 7        43.800                    96378264.91247
        28.100    23536557.45347
  25040175.422 5 131586997.695 5        37.400                   102535338.48946
        20.900    25040177.27046
  20951043.203 9 110098493.037 9        52.000    20951049.418 9  85791068.32949
        46.100    20951049.21549  20951044.980 7  82216446.686 7        41.600
 19  2 12  0 13 30.0000000  0 12G01G32G11G18G08G27G14G20G21G16G22G10
  23945295.586 6 125833387.108 6        38.400    23945302.895 6  98052013.90946
        24.200    23945302.46146  23945299.094 3  93966480.411 3        32.300
  24209450.500 6 127221547.758 6        39.000    24209457.906 6  99133680.35747
        25.200    24209457.06647  24209454.457 2  95003039.737 2        31.100
  23139973.211 7 121601387.533 7        41.800                    94754351.42247
        27.300    23139976.65247
  21468172.195 9 112816028.064 9        49.600                    87908620.82549
        38.400    21468176.66449
  20603359.445 9 108271400.270 9        54.700    20603366.145 9  84367352.01849
        49.100    20603365.09049  20603362.203 7  80852031.205 7        42.700
  20431979.844 9 107370803.813 9        55.200    20431985.961 9  83665590.42549
        50.200    20431985.38349  20431982.570 7  80179468.570 7        43.300
  25192930.813 3 132389756.07413        33.700                   103160856.42755
        16.300    25192934.58245
  22322170.875 7 117303825.564 7        43.600                    91405606.51848
        32.000    22322174.08248
  25642265.547 5 134751001.068 5        36.000                   105000818.49445
        19.000    25642268.64145
  23557445.539 7 123795216.766 7        42.800                    96463811.76447
        27.800    23557449.02047
  25019303.344 5 131477320.763 5        35.600                   102449875.81945
        19.000    25019305.14145
  20957076.633 9 110130198.558 9        52.000    20957082.848 9  85815773.93149
        45.900    20957082.61749  20957078.293 6  82240122.897 6        40.900
 19  2 12  0 14  0.0000000  0 12G01G32G11G18G08G27G14G20G21G16G22G10
  23927231.422 5 125738462.918 5        37.200    23927239.320 6  97978047.06146
        23.300    23927239.49646  23927235.445 3  93895595.504 3        32.700
  24192249.750 6 127131154.374 6        39.400    24192256.758 7  99063243.96046
        24.500    24192256.19546  24192252.441 2  94935538.17512        31.200
  23121368.836 7 121503619.510 7        42.600                    94678168.58547
        27.500    23121372.19547
  21453784.023 9 112740417.569 9        49.500                    87849703.57749
        38.300    21453788.43049
  20597006.758 9 108238017.716 9        54.900    20597013.617 9  84341339.63249
        48.900    20597012.64849  20597009.484 7  80827102.678 7        42.500
  20438115.086 9 107403044.464 9        55.200    20438121.395 9  83690713.00649
        50.200    20438120.68449  20438117.777 7  80203544.382 7        43.600
  25175436.672 2 132297831.85212        31.600                   103089227.17355
        17.400    25175442.49245
  22337891.703 7 117386438.974 7        44.100                    91469980.61248
        31.900    22337894.64848
  25657377.742 3 134830426.760 3        32.000                   105062708.60545
        17.800    25657383.61745
  23578365.180 7 123905148.424 7        43.900                    96549472.81047
        28.400    23578368.31347
  24998448.102 6 131367716.422 6        38.800                   102364469.89246
        22.800    24998449.34446
  20963210.219 9 110162430.145 9        53.400    20963216.438 9  85840889.45849
        46.500    20963215.98449  20963212.160 7  82264191.926 7        41.400
 19  2 12  0 14 30.0000000  0 11G01G32G11G18G08G27G14G20G16G22G10
  23909193.000 6 125643669.691 6        38.100    23909200.734 6  97904182.24746
        23.200    23909200.27346  23909196.457 2  93824808.382 2        31.300
  24175078.383 6 127040918.111 6        39.200    24175085.660 7  98992929.99547
        27.200    24175084.77047  24175081.961 2  94868153.955 2        31.400
  23102788.773 7 121405980.324 7        42.500                    94602086.10547
        29.100    23102792.51647
  21439449.594 9 112665089.814 9        49.200                    87791006.63749
        38.500    21439454.02049
  20590735.086 9 108205059.072 9        55.000    20590741.648 9  84315657.57649
        48.900    20590740.87549  20590737.871 7  80802490.716 7        42.400
  20444337.602 9 107435744.921 9        54.900    20444343.934 9  83716193.87249
        50.100    20444343.35249  20444340.355 7  80227963.545 7        42.800
  25157941.070 5 132205880.62715        35.400                   103017576.99655
        16.900    25157945.33245
  22353674.344 7 117469378.132 7        44.300                    91534608.54548
        31.200    22353677.12948
  23599311.336 7 124015225.101 7        43.900                    96635246.83347
        28.700    23599315.46147
  24977605.477 6 131258187.933 6        40.300                   102279123.07546
        23.800    24977606.56646
  20969443.719 9 110195187.470 9        53.000    20969449.855 9  85866414.64649
        46.000    20969449.65249  20969445.438 7  82288653.571 7        41.200
 19  2 12  0 15  0.0000000  0 11G01G32G11G18G08G27G14G20G16G22G10
  23891178.992 6 125549005.828 6        38.500    23891186.762 6  97830418.25646
        22.900    23891186.21946  23891183.051 2  93754117.887 2        31.900
  24157937.000 6 126950839.852 6        39.400    24157943.668 6  98922739.15147
        26.800    24157942.97747  24157940.098 2  94800887.780 2        31.400
  23084232.688 7 121308469.010 7        43.700                    94526103.28047
        28.700    23084235.94547
  21425168.867 9 112590043.534 9        49.600                    87732529.02349
        38.600    21425173.03549
  20584543.727 9 108172523.538 9        54.900    20584550.738 9  84290305.20449
        48.900    20584549.66849  20584546.480 7  80778194.684 7        42.600
  20450647.602 9 107468902.903 9        55.200    20450653.730 9  83742031.25249
        50.000    20450652.92649  20450650.328 7  80252724.363 7        43.100
  25140437.492 4 132113902.76814        34.300                   102945905.89655
        17.800    25140442.65245
  22369518.094 7 117552638.340 7        43.900                    91599486.62348
        31.600    22369521.20348
  23620285.773 7 124125441.864 7        42.400                    96721130.02347
        28.200    23620288.93047
  24956775.930 5 131148735.400 5        36.300                   102193835.42045
        19.000    24956777.76245
  20975776.711 9 110228466.868 9        53.200    20975782.781 9  85892346.65549
        46.000    20975782.37149  20975778.297 7  82313505.086 7        41.300
 19  2 12  0 15 30.0000000  0 11G01G32G11G18G08G27G14G20G16G22G10
  23873189.648 6 125454472.904 6        38.800    23873197.844 7  97756756.27546
        23.300    23873197.28146  23873193.609 3  93683525.180 3        32.300
  24140826.367 6 126860923.335 6        39.300    24140832.992 6  98852674.35347
        26.700    24140832.30147  24140829.258 2  94733742.325 2        31.800
  23065702.008 7 121211087.414 7        43.700                    94450221.54347
        28.500    23065704.82447
  21410941.766 9 112515280.356 9        50.200                    87674272.01749
        38.500    21410946.07049
  20578433.477 9 108140413.259 9        54.100    20578440.164 9  84265284.21349
        49.000    20578439.22749  20578436.164 7  80754216.238 7        43.000
  20457044.516 9 107502518.981 9        55.400    20457050.676 9  83768225.58849
        50.000    20457049.93849  20457047.141 7  80277827.264 7        43.100
  25122930.930 5 132021902.04615        35.500                   102874217.03355
        16.300    25122934.45345
  22385423.516 7 117636218.056 7        43.600                    91664613.67448
        31.900    22385425.97348
  23641285.891 7 124235796.953 7        42.500                    96807121.00347
        27.300    23641288.48047
  24935964.086 6 131039361.070 6        40.700                   102108608.57046
        24.100    24935965.16446
  20982208.695 9 110262267.571 9        53.800    20982214.699 9  85918684.86249
        46.200    20982214.35949  20982210.492 6  82338745.859 6        40.700
 19  2 12  0 16  0.0000000  0 11G01G32G11G18G08G27G14G20G16G22G10
  23855225.281 6 125360071.624 6        38.600    23855233.859 7  97683196.86147
        26.200    23855233.69547  23855229.914 3  93613030.717 3        32.400
  24123747.586 6 126771171.617 6        39.200    24123754.027 6  98782737.95147
        25.900    24123753.09447  24123749.910 2  94666719.895 2        31.800
  23047196.250 7 121113837.402 7        43.600                    94374442.31447
        29.900    23047199.28547
  21396768.813 9 112440801.361 9        49.800                    87616236.44349
        39.000    21396773.22349
  20572404.055 9 108108729.825 9        54.200    20572410.980 9  84240595.82149
        48.900    20572410.05949  20572406.688 7  80730556.535 7        42.200
  20463528.398 9 107536592.964 9        55.200    20463534.746 9  83794776.73849
        49.900    20463534.00449  20463531.293 7  80303272.101 7        42.700
  25105419.258 4 131929880.93914        34.100                   102802512.31255
        16.900    25105423.10245
  22401388.328 7 117720114.735 7        44.100                    91729987.69848
        31.000    22401391.30548
  23662310.508 7 124346287.127 7        42.000                    96893217.22847
        26.700    23662314.07047
  24915166.164 7 130930066.986 7        42.000                   102023444.46346
        21.800    24915166.69146
  20988739.438 9 110296588.051 9        52.900    20988745.641 9  85945428.10349
        45.800    20988745.30949  20988741.141 7  82364374.803 7        41.300
 19  2 12  0 16 30.0000000  0 11G01G32G11G18G08G27G14G20G16G22G10
  23837286.852 6 125265802.743 6        38.500    23837294.563 6  97609740.62446
        24.700    23837294.80146  23837290.527 2  93542635.232 2        31.600
  24106699.844 6 126681587.687 6        39.100    24106706.887 6  98712932.30447
        26.400    24106706.43847  24106702.848 2  94599822.858 2        31.100
  23028714.828 7 121016720.106 7        43.400                    94298766.51147
        28.900    23028718.26647
  21382649.820 9 112366607.168 9        49.300                    87558422.79449
        38.800    21382654.34849
  20566456.641 9 108077474.550 9        54.100    20566463.609 9  84216241.05349
        49.000    20566462.14149  20566459.121 7  80707216.551 7        42.600
  20470099.523 9 107571124.654 9        55.000    20470105.926 9  83821684.54149
        49.800    20470105.23049  20470102.531 7  80329058.749 7        42.900
  25087903.789 3                        33.100
        16.900    25087908.89545
  22417413.008 7 117804326.233 7        43.400                    91795607.04748
        31.800    22417415.57048
  23683362.375 7 124456910.066 7        41.700                    96979416.92447
        27.600    23683365.05547
  24894382.844 6 130820854.564 6        38.800                   101938343.87946
        24.100    24894385.15646
  20995369.203 9 110331426.758 9        52.800    20995375.344 9  85972575.14549
        45.800    20995375.04349  20995370.617 6  82390390.728 6        40.800
 19  2 12  0 17  0.0000000  0 11G01G32G11G18G08G27G14G20G16G22G10
  23819373.984 6 125171667.439 6        39.200    23819381.289 6  97536388.48247
        25.300    23819380.85247  23819377.570 3  93472339.387 3        33.000
  24089684.742 6 126592175.080 6        39.800    24089692.465 7  98643260.15247
        26.300    24089691.74247  24089688.430 2  94533053.669 2        31.600
  23010260.109 7 120919736.956 7        44.100                    94223195.24448
        30.000    23010263.10248
  21368585.734 9 112292699.419 9        49.200                    87500832.35149
        38.700    21368589.97349
  20560590.781 9 108046649.633 9        54.600    20560597.516 9  84192221.63849
        49.000    20560596.45749  20560593.441 7  80684197.926 7        42.500
  20476757.859 9 107606114.270 9        55.300    20476764.273 9  83848949.17049
        49.900    20476763.39149  20476760.957 7  80355187.357 7        43.000
  25070387.516 3 131745789.17513        33.000                   102659064.13455
        15.600    25070391.62145
  22433496.891 7 117888850.166 7        43.000                    91861469.84948
        31.900    22433500.43048
  23704437.617 7 124567663.081 7        42.000                    97065717.95047
        26.400    23704440.70347
  24873614.617 5 130711726.287 5        37.900                   101853308.80245
        19.600    24873617.85245
  21002097.148 9 110366782.519 9        52.300    21002103.289 9  86000125.09349
        45.600    21002103.07049  21002098.922 7  82416792.757 7        41.400
 19  2 12  0 17 30.0000000  0 11G01G32G11G18G08G27G14G20G16G22G10
  23801485.719 6 125077666.042 6        39.500    23801493.141 6  97463140.69646
        23.000    23801492.71946  23801489.609 3  93402143.616 3        33.100
  24072704.164 6 126502936.451 6        40.600    24072711.281 7  98573723.57547
        27.300    24072709.86747  24072707.285 2  94466414.48312        31.800
  22991830.398 7 120822889.163 7        43.700                    94147729.44147
        29.700    22991833.06647
  21354576.125 9 112219078.656 9        49.200                    87443465.53949
        38.500    21354580.86749
  20554806.820 9 108016255.850 9        55.300    20554813.879 9  84168538.16649
        49.200    20554812.82049  20554809.910 7  80661501.258 7        42.100
  20483503.438 9 107641561.312 9        54.600    20483509.453 9  83876570.24549
        49.900    20483508.85549  20483506.188 7  80381657.535 7        43.100
  25052870.945 5 131653724.093 5        37.200                   102587325.15145
        17.800    25052873.36745
  22449640.445 7 117973684.301 7        43.400                    91927574.37448
        31.300    22449643.86748
  23725537.008 7 124678543.186 7        41.600                    97152118.03947
        28.000    23725539.93847
  24852866.289 6 130602683.801 6        39.500                   101768340.68346
        22.900    24852868.43046
  21008923.031 9 110402653.507 9        52.700    21008929.398 9  86028076.51149
        45.500    21008928.94549  21008925.039 6  82443579.527 6        40.900
 19  2 12  0 18  0.0000000  0 11G01G32G11G18G08G27G14G20G16G22G10
  23783623.516 6 124983799.422 6        39.600    23783631.820 6  97389997.90347
        26.400    23783631.04747  23783628.148 3  93332048.479 3        33.800
  24055755.836 7 126413874.972 7        41.400    24055762.980 7  98504325.01147
        26.800    24055762.30547  24055758.961 2  94399907.503 2        31.600
  22973426.641 7 120726178.221 7        44.300                    94072370.29347
        29.400    22973429.71947
  21340621.688 9 112145745.892 9        49.000                    87386323.14649
        38.700    21340625.66049
  20549105.602 9 107986294.845 9        53.800    20549112.371 9  84145191.93349
        49.100    20549111.44949  20549108.477 7  80639127.805 7        43.200
  20490335.531 9 107677465.636 9        55.400    20490342.109 9  83904547.63149
        50.000    20490341.37949  20490338.637 7  80408469.207 7        43.100
  25035349.117 5 131561649.63915        36.700                   102515578.90055
        17.400    25035351.23845
  22465842.563 7 118058826.034 7        43.600                    91993918.56548
        30.700    22465845.83248
  23746661.148 7 124789547.429 7        42.300                    97238614.86047
        27.100    23746663.75447
  24832133.688 6 130493729.055 6        40.900                   101683440.88946
        22.300    24832135.05946
  21015846.680 9 110439038.052 9        52.800    21015853.383 9  86056428.10449
        45.500    21015852.71149  21015848.695 6  82470749.796 6        40.500
 19  2 12  0 18 30.0000000  0 11G01G32G11G18G08G27G14G20G16G22G10
  23765786.336 6 124890068.358 6        38.600    23765794.676 6  97316960.75446
        24.200    23765794.12946  23765790.969 3  93262054.552 3        32.900
  24038842.891 6 126324993.690 6        40.200    24038849.211 7  98435066.87047
        27.200    24038848.72347  24038844.855 3  94333535.111 3        32.200
  22955049.820 7 120629605.567 7        43.800                    93997118.87047
        29.800    22955052.81347
  21326722.023 9 112072702.063 9        48.800                    87329405.89149
        38.900    21326725.70349
  20543486.922 9 107956768.269 9        54.800    20543493.691 9  84122184.21549
        49.200    20543492.53549  20543489.590 7  80617078.740 7        42.100
  20497254.953 9 107713827.053 9        55.200    20497261.191 9  83932881.19849
        49.900    20497260.48449  20497257.961 7  80435622.208 7        42.600
  25017826.000 5 131469568.77215        36.200                   102443827.55855
        17.800    25017828.77745
  22482103.047 7 118144273.060 7        44.600                    92060500.67848
